{"meta":{"code":200},"response":{"venues":[{"id":"4f321e9219836c91c7b7e2c8","name":"Pizza","contact":{"phone":"4087395949","formattedPhone":"(408) 739-5949"},"location":{"address":"1030 Astoria Dr","lat":37.353383,"lng":-122.055324,"distance":3169,"cc":"US","city":"Sunnyvale","state":"CA","country":"United States"},"categories":[{"id":"4bf58dd8d48988d1ca941735","name":"Pizza Place","pluralName":"Pizza Places","shortName":"Pizza","icon":{"prefix":"https:\/\/ss1.4sqi.net\/img\/categories_v2\/food\/pizza_","suffix":".png"},"primary":true}],"verified":false,"stats":{"checkinsCount":1,"usersCount":1,"tipCount":0},"specials":{"count":0,"items":[]},"hereNow":{"count":0,"summary":"0 people here","groups":[]},"referralId":"v-1402514471"},{"id":"4e4ce2cfbd413c4cc66cf597","name":"Pizza Presto","contact":{"phone":"4082575555","formattedPhone":"(408) 257-5555"},"location":{"address":"19998 Homestead Rd","lat":37.337541,"lng":-122.023471,"distance":898,"postalCode":"95014","cc":"US","city":"Cupertino","state":"CA","country":"United States"},"categories":[{"id":"4bf58dd8d48988d1ca941735","name":"Pizza Place","pluralName":"Pizza Places","shortName":"Pizza","icon":{"prefix":"https:\/\/ss1.4sqi.net\/img\/categories_v2\/food\/pizza_","suffix":".png"},"primary":true}],"verified":false,"stats":{"checkinsCount":0,"usersCount":0,"tipCount":0},"menu":{"type":"Menu","label":"Menu","anchor":"View Menu","url":"https:\/\/foursquare.com\/v\/pizza-presto\/4e4ce2cfbd413c4cc66cf597\/menu","mobileUrl":"https:\/\/foursquare.com\/v\/4e4ce2cfbd413c4cc66cf597\/device_menu"},"specials":{"count":0,"items":[]},"hereNow":{"count":0,"summary":"0 people here","groups":[]},"referralId":"v-1402514471"},{"id":"4ad518d8f964a520d70121e3","name":"Pizza Pub","contact":{"phone":"8665313096","formattedPhone":"(866) 531-3096"},"location":{"address":"1342 S Mary Ave","lat":37.350776,"lng":-122.04960823059082,"distance":2620,"postalCode":"94087","cc":"US","city":"Sunnyvale","state":"CA","country":"United States"},"categories":[{"id":"4bf58dd8d48988d1ca941735","name":"Pizza Place","pluralName":"Pizza Places","shortName":"Pizza","icon":{"prefix":"https:\/\/ss1.4sqi.net\/img\/categories_v2\/food\/pizza_","suffix":".png"},"primary":true}],"verified":false,"stats":{"checkinsCount":282,"usersCount":175,"tipCount":9},"menu":{"type":"Menu","label":"Menu","anchor":"View Menu","url":"https:\/\/foursquare.com\/v\/pizza-pub\/4ad518d8f964a520d70121e3\/menu","mobileUrl":"https:\/\/foursquare.com\/v\/4ad518d8f964a520d70121e3\/device_menu"},"specials":{"count":0,"items":[]},"hereNow":{"count":0,"summary":"0 people here","groups":[]},"referralId":"v-1402514471"},{"id":"4bb2a1b614cfd13a813e15ab","name":"Pizza Hut","contact":{"phone":"6509688100","formattedPhone":"(650) 968-8100","twitter":"pizzahut"},"location":{"address":"1241 W El Camino Real","crossStreet":"at Bernardo Ave","lat":37.374573,"lng":-122.057082,"distance":5229,"postalCode":"94087-1028","cc":"US","city":"Sunnyvale","state":"CA","country":"United States"},"categories":[{"id":"4bf58dd8d48988d1ca941735","name":"Pizza Place","pluralName":"Pizza Places","shortName":"Pizza","icon":{"prefix":"https:\/\/ss1.4sqi.net\/img\/categories_v2\/food\/pizza_","suffix":".png"},"primary":true}],"verified":true,"stats":{"checkinsCount":704,"usersCount":160,"tipCount":3},"url":"http:\/\/www.pizzahut.com\/locations\/california\/sunnyvale\/011740","menu":{"type":"Menu","label":"Menu","anchor":"View Menu","url":"https:\/\/foursquare.com\/v\/pizza-hut\/4bb2a1b614cfd13a813e15ab\/menu","mobileUrl":"https:\/\/foursquare.com\/v\/4bb2a1b614cfd13a813e15ab\/device_menu"},"specials":{"count":0,"items":[]},"hereNow":{"count":0,"summary":"0 people here","groups":[]},"storeId":"011740","referralId":"v-1402514471"},{"id":"4bb523ef6edc76b0b8512f1c","name":"Pizza Pizza","contact":{},"location":{"lat":37.389169,"lng":-122.041188,"distance":6388,"postalCode":"94085","cc":"US","city":"Sunnyvale","state":"CA","country":"United States"},"categories":[{"id":"4bf58dd8d48988d1ca941735","name":"Pizza Place","pluralName":"Pizza Places","shortName":"Pizza","icon":{"prefix":"https:\/\/ss1.4sqi.net\/img\/categories_v2\/food\/pizza_","suffix":".png"},"primary":true}],"verified":false,"stats":{"checkinsCount":2,"usersCount":2,"tipCount":0},"specials":{"count":0,"items":[]},"hereNow":{"count":0,"summary":"0 people here","groups":[]},"referralId":"v-1402514471"},{"id":"4b2abdb3f964a520aaae24e3","name":"Cicero's Pizza","contact":{"phone":"4087770690","formattedPhone":"(408) 777-0690"},"location":{"address":"6138 Bollinger Rd","crossStreet":"at Miller Ave.","lat":37.309153,"lng":-122.012091,"distance":3086,"postalCode":"95129","cc":"US","city":"San Jose","state":"CA","country":"United States"},"categories":[{"id":"4bf58dd8d48988d1ca941735","name":"Pizza Place","pluralName":"Pizza Places","shortName":"Pizza","icon":{"prefix":"https:\/\/ss1.4sqi.net\/img\/categories_v2\/food\/pizza_","suffix":".png"},"primary":true}],"verified":false,"stats":{"checkinsCount":2051,"usersCount":854,"tipCount":28},"url":"http:\/\/www.cicerospizza.com","menu":{"type":"Menu","label":"Menu","anchor":"View Menu","url":"https:\/\/foursquare.com\/v\/ciceros-pizza\/4b2abdb3f964a520aaae24e3\/menu","mobileUrl":"https:\/\/foursquare.com\/v\/4b2abdb3f964a520aaae24e3\/device_menu"},"specials":{"count":0,"items":[]},"hereNow":{"count":0,"summary":"0 people here","groups":[]},"referralId":"v-1402514471"},{"id":"4b11cfd4f964a5202f8523e3","name":"Pizza Party","contact":{"phone":"4082485680","formattedPhone":"(408) 248-5680"},"location":{"address":"1998 Homestead Rd #101","crossStreet":"at Scott Blvd","lat":37.34351555341407,"lng":-121.95914268493651,"distance":6499,"postalCode":"95050","cc":"US","city":"Santa Clara","state":"CA","country":"United States"},"categories":[{"id":"4bf58dd8d48988d1ca941735","name":"Pizza Place","pluralName":"Pizza Places","shortName":"Pizza","icon":{"prefix":"https:\/\/ss1.4sqi.net\/img\/categories_v2\/food\/pizza_","suffix":".png"},"primary":true}],"verified":true,"stats":{"checkinsCount":481,"usersCount":248,"tipCount":6},"url":"http:\/\/pizzapartyonline.com","delivery":{"url":"http:\/\/www.grubhub.com\/order_redir.jsp?custId=168129&affId=1131","provider":{"name":"grubhub"}},"menu":{"type":"Menu","label":"Menu","anchor":"View Menu","url":"https:\/\/foursquare.com\/v\/pizza-party\/4b11cfd4f964a5202f8523e3\/menu","mobileUrl":"https:\/\/foursquare.com\/v\/4b11cfd4f964a5202f8523e3\/device_menu"},"specials":{"count":0,"items":[]},"hereNow":{"count":0,"summary":"0 people here","groups":[]},"storeId":"","referralId":"v-1402514471"},{"id":"4baab4faf964a52073813ae3","name":"Pizza Guys","contact":{"phone":"4088713333","formattedPhone":"(408) 871-3333"},"location":{"address":"1347 S Winchester Blvd","lat":37.29988217353821,"lng":-121.95052665,"distance":8005,"postalCode":"95128","cc":"US","city":"San Jose","state":"CA","country":"United States"},"categories":[{"id":"4bf58dd8d48988d1ca941735","name":"Pizza Place","pluralName":"Pizza Places","shortName":"Pizza","icon":{"prefix":"https:\/\/ss1.4sqi.net\/img\/categories_v2\/food\/pizza_","suffix":".png"},"primary":true}],"verified":true,"stats":{"checkinsCount":99,"usersCount":55,"tipCount":2},"url":"https:\/\/pizzaguys.com","menu":{"type":"Menu","label":"Menu","anchor":"View Menu","url":"https:\/\/foursquare.com\/v\/pizza-guys\/4baab4faf964a52073813ae3\/menu","mobileUrl":"https:\/\/foursquare.com\/v\/4baab4faf964a52073813ae3\/device_menu"},"specials":{"count":0,"items":[]},"hereNow":{"count":0,"summary":"0 people here","groups":[]},"storeId":"139","referralId":"v-1402514471"},{"id":"4b3d1a3ef964a520018e25e3","name":"Stuft Pizza","contact":{"phone":"4082449444","formattedPhone":"(408) 244-9444"},"location":{"address":"2898 Homestead Rd","lat":37.33767451666667,"lng":-121.97889933,"distance":4668,"postalCode":"95051","cc":"US","city":"Santa Clara","state":"CA","country":"United States"},"categories":[{"id":"4bf58dd8d48988d1ca941735","name":"Pizza Place","pluralName":"Pizza Places","shortName":"Pizza","icon":{"prefix":"https:\/\/ss1.4sqi.net\/img\/categories_v2\/food\/pizza_","suffix":".png"},"primary":true}],"verified":false,"stats":{"checkinsCount":294,"usersCount":161,"tipCount":4},"delivery":{"url":"http:\/\/www.seamless.com\/food-delivery\/restaurant.30387.r?a=1026&utm_source=Foursquare&utm_medium=affiliate&utm_campaign=SeamlessOrderDeliveryLink","provider":{"name":"seamless"}},"menu":{"type":"Menu","label":"Menu","anchor":"View Menu","url":"https:\/\/foursquare.com\/v\/stuft-pizza\/4b3d1a3ef964a520018e25e3\/menu","mobileUrl":"https:\/\/foursquare.com\/v\/4b3d1a3ef964a520018e25e3\/device_menu"},"specials":{"count":0,"items":[]},"hereNow":{"count":0,"summary":"0 people here","groups":[]},"referralId":"v-1402514471"},{"id":"52f2ac9e498ee4efff722cec","name":"Pizza Factory","contact":{"phone":"4086000025","formattedPhone":"(408) 600-0025"},"location":{"address":"3039 Meridian Ave","lat":37.269667,"lng":-121.905855,"distance":13110,"cc":"US","city":"Willow Glen","state":"CA","country":"United States"},"categories":[{"id":"4bf58dd8d48988d1ca941735","name":"Pizza Place","pluralName":"Pizza Places","shortName":"Pizza","icon":{"prefix":"https:\/\/ss1.4sqi.net\/img\/categories_v2\/food\/pizza_","suffix":".png"},"primary":true}],"verified":false,"stats":{"checkinsCount":86,"usersCount":44,"tipCount":1},"specials":{"count":0,"items":[]},"hereNow":{"count":1,"summary":"One person here","groups":[{"type":"others","name":"Other people here","count":1,"items":[]}]},"referralId":"v-1402514471"},{"id":"4d42010489c3a1439ed0f383","name":"Pizza Pad Pizza Parlor","contact":{"phone":"4086267790","formattedPhone":"(408) 626-7790"},"location":{"address":"2099 S Bascom Ave","lat":37.284491658210754,"lng":-121.93333446979523,"distance":10172,"postalCode":"95008","cc":"US","city":"Campbell","state":"CA","country":"United States"},"categories":[{"id":"4bf58dd8d48988d1ca941735","name":"Pizza Place","pluralName":"Pizza Places","shortName":"Pizza","icon":{"prefix":"https:\/\/ss1.4sqi.net\/img\/categories_v2\/food\/pizza_","suffix":".png"},"primary":true}],"verified":false,"stats":{"checkinsCount":1,"usersCount":1,"tipCount":0},"specials":{"count":0,"items":[]},"hereNow":{"count":0,"summary":"0 people here","groups":[]},"referralId":"v-1402514471"},{"id":"4b7cbc56f964a52081a32fe3","name":"Domino's Pizza","contact":{"phone":"4087363666","formattedPhone":"(408) 736-3666","twitter":"dominos"},"location":{"address":"992 W El Camino Real","crossStreet":"at S Mary Ave","lat":37.37110535600082,"lng":-122.04793,"distance":4562,"postalCode":"94087","cc":"US","city":"Sunnyvale","state":"CA","country":"United States"},"categories":[{"id":"4bf58dd8d48988d1ca941735","name":"Pizza Place","pluralName":"Pizza Places","shortName":"Pizza","icon":{"prefix":"https:\/\/ss1.4sqi.net\/img\/categories_v2\/food\/pizza_","suffix":".png"},"primary":true}],"verified":true,"stats":{"checkinsCount":123,"usersCount":69,"tipCount":1},"url":"http:\/\/www.dominospizza.com","menu":{"type":"Menu","label":"Menu","anchor":"View Menu","url":"https:\/\/foursquare.com\/v\/dominos-pizza\/4b7cbc56f964a52081a32fe3\/menu","mobileUrl":"https:\/\/foursquare.com\/v\/4b7cbc56f964a52081a32fe3\/device_menu"},"specials":{"count":0,"items":[]},"hereNow":{"count":0,"summary":"0 people here","groups":[]},"storeId":"","referralId":"v-1402514471"},{"id":"4f32b7a819836c91c7f2cb10","name":"Speedy Pizza","contact":{"phone":"4087777731","formattedPhone":"(408) 777-7731"},"location":{"address":"18572 Prospect Rd","lat":37.292237,"lng":-121.996089,"distance":5440,"cc":"US","city":"Saratoga","state":"CA","country":"United States"},"categories":[{"id":"4bf58dd8d48988d1ca941735","name":"Pizza Place","pluralName":"Pizza Places","shortName":"Pizza","icon":{"prefix":"https:\/\/ss1.4sqi.net\/img\/categories_v2\/food\/pizza_","suffix":".png"},"primary":true}],"verified":false,"stats":{"checkinsCount":0,"usersCount":0,"tipCount":0},"specials":{"count":0,"items":[]},"hereNow":{"count":0,"summary":"0 people here","groups":[]},"referralId":"v-1402514471"},{"id":"4e4d4040bd413c4cc66fb79a","name":"Pizza Hut","contact":{"phone":"4085596565","formattedPhone":"(408) 559-6565"},"location":{"address":"2591 S Bascom Ave","lat":37.28318615663559,"lng":-121.92505841254334,"distance":10875,"postalCode":"95008","cc":"US","city":"Campbell","state":"CA","country":"United States"},"categories":[{"id":"4bf58dd8d48988d1ca941735","name":"Pizza Place","pluralName":"Pizza Places","shortName":"Pizza","icon":{"prefix":"https:\/\/ss1.4sqi.net\/img\/categories_v2\/food\/pizza_","suffix":".png"},"primary":true}],"verified":false,"stats":{"checkinsCount":1,"usersCount":1,"tipCount":0},"url":"http:\/\/pizzahut.com","menu":{"type":"Menu","label":"Menu","anchor":"View Menu","url":"https:\/\/foursquare.com\/v\/pizza-hut\/4e4d4040bd413c4cc66fb79a\/menu","mobileUrl":"https:\/\/foursquare.com\/v\/4e4d4040bd413c4cc66fb79a\/device_menu"},"specials":{"count":0,"items":[]},"hereNow":{"count":0,"summary":"0 people here","groups":[]},"referralId":"v-1402514471"},{"id":"4b9af4d5f964a520b6e635e3","name":"Domino's Pizza","contact":{"phone":"4082533030","formattedPhone":"(408) 253-3030","twitter":"dominos"},"location":{"address":"5313 Prospect Rd","crossStreet":"at Lawrence Expy","lat":37.29284992305016,"lng":-121.99647903442383,"distance":5364,"postalCode":"95129","cc":"US","city":"San Jose","state":"CA","country":"United States"},"categories":[{"id":"4bf58dd8d48988d1ca941735","name":"Pizza Place","pluralName":"Pizza Places","shortName":"Pizza","icon":{"prefix":"https:\/\/ss1.4sqi.net\/img\/categories_v2\/food\/pizza_","suffix":".png"},"primary":true}],"verified":true,"stats":{"checkinsCount":62,"usersCount":47,"tipCount":1},"menu":{"type":"Menu","label":"Menu","anchor":"View Menu","url":"https:\/\/foursquare.com\/v\/dominos-pizza\/4b9af4d5f964a520b6e635e3\/menu","mobileUrl":"https:\/\/foursquare.com\/v\/4b9af4d5f964a520b6e635e3\/device_menu"},"specials":{"count":0,"items":[]},"hereNow":{"count":0,"summary":"0 people here","groups":[]},"storeId":"","referralId":"v-1402514471"},{"id":"4afcc853f964a520d32522e3","name":"Pizza California","contact":{"phone":"4085737373","formattedPhone":"(408) 573-7373","twitter":"pizzacalifornia"},"location":{"address":"1708 Oakland Rd, #500","lat":37.383443,"lng":-121.894036,"distance":13405,"postalCode":"95131","cc":"US","city":"San Jose","state":"CA","country":"United States"},"categories":[{"id":"4bf58dd8d48988d1ca941735","name":"Pizza Place","pluralName":"Pizza Places","shortName":"Pizza","icon":{"prefix":"https:\/\/ss1.4sqi.net\/img\/categories_v2\/food\/pizza_","suffix":".png"},"primary":true}],"verified":true,"stats":{"checkinsCount":2021,"usersCount":618,"tipCount":9},"url":"http:\/\/pizzacalifornia.com","menu":{"type":"Menu","label":"Menu","anchor":"View Menu","url":"https:\/\/foursquare.com\/v\/pizza-california\/4afcc853f964a520d32522e3\/menu","mobileUrl":"https:\/\/foursquare.com\/v\/4afcc853f964a520d32522e3\/device_menu"},"specials":{"count":0,"items":[]},"hereNow":{"count":0,"summary":"0 people here","groups":[]},"venuePage":{"id":"43118610"},"storeId":"","referralId":"v-1402514471"},{"id":"4be77e02c5220f47efc2a8ca","name":"Domino's Pizza","contact":{"phone":"4082412828","formattedPhone":"(408) 241-2828","twitter":"dominos"},"location":{"address":"3207 Cabrillo Ave","lat":37.3590467591959,"lng":-121.98400371459336,"distance":5128,"postalCode":"95051","cc":"US","city":"Santa Clara","state":"CA","country":"United States"},"categories":[{"id":"4bf58dd8d48988d1ca941735","name":"Pizza Place","pluralName":"Pizza Places","shortName":"Pizza","icon":{"prefix":"https:\/\/ss1.4sqi.net\/img\/categories_v2\/food\/pizza_","suffix":".png"},"primary":true}],"verified":true,"stats":{"checkinsCount":236,"usersCount":89,"tipCount":4},"menu":{"type":"Menu","label":"Menu","anchor":"View Menu","url":"https:\/\/foursquare.com\/v\/dominos-pizza\/4be77e02c5220f47efc2a8ca\/menu","mobileUrl":"https:\/\/foursquare.com\/v\/4be77e02c5220f47efc2a8ca\/device_menu"},"specials":{"count":0,"items":[]},"hereNow":{"count":0,"summary":"0 people here","groups":[]},"storeId":"","referralId":"v-1402514471"},{"id":"4f326d5c19836c91c7d6c50e","name":"Pappy's Pizza","contact":{"phone":"4087441700","formattedPhone":"(408) 744-1700"},"location":{"address":"115 Plaza Dr","lat":37.402804,"lng":-122.021728,"distance":7889,"cc":"US","city":"Sunnyvale","state":"CA","country":"United States"},"categories":[{"id":"4bf58dd8d48988d1ca941735","name":"Pizza Place","pluralName":"Pizza Places","shortName":"Pizza","icon":{"prefix":"https:\/\/ss1.4sqi.net\/img\/categories_v2\/food\/pizza_","suffix":".png"},"primary":true}],"verified":false,"stats":{"checkinsCount":1,"usersCount":1,"tipCount":0},"specials":{"count":0,"items":[]},"hereNow":{"count":0,"summary":"0 people here","groups":[]},"referralId":"v-1402514471"},{"id":"4b874d78f964a520d0ba31e3","name":"Seniore's Pizza","contact":{"phone":"4082612500","formattedPhone":"(408) 261-2500","twitter":"seniorespizza"},"location":{"address":"940 Monroe St","crossStreet":"btwn Franklin & Homestead","lat":37.34798491206569,"lng":-121.9482421875,"distance":7547,"postalCode":"95050","cc":"US","city":"Santa Clara","state":"CA","country":"United States"},"categories":[{"id":"4bf58dd8d48988d1ca941735","name":"Pizza Place","pluralName":"Pizza Places","shortName":"Pizza","icon":{"prefix":"https:\/\/ss1.4sqi.net\/img\/categories_v2\/food\/pizza_","suffix":".png"},"primary":true}],"verified":false,"stats":{"checkinsCount":520,"usersCount":261,"tipCount":12},"url":"http:\/\/www.seniorespizza.net","menu":{"type":"Menu","label":"Menu","anchor":"View Menu","url":"https:\/\/foursquare.com\/v\/seniores-pizza\/4b874d78f964a520d0ba31e3\/menu","mobileUrl":"https:\/\/foursquare.com\/v\/4b874d78f964a520d0ba31e3\/device_menu"},"specials":{"count":0,"items":[]},"hereNow":{"count":0,"summary":"0 people here","groups":[]},"referralId":"v-1402514471"},{"id":"4c3a0f0c3849c928984bc2b1","name":"Domino's Pizza","contact":{"phone":"4087323030","formattedPhone":"(408) 732-3030","twitter":"dominos"},"location":{"address":"615 Caliente Dr","lat":37.39143080483057,"lng":-122.01358106308778,"distance":6761,"postalCode":"94085","cc":"US","city":"Sunnyvale","state":"CA","country":"United States"},"categories":[{"id":"4bf58dd8d48988d1ca941735","name":"Pizza Place","pluralName":"Pizza Places","shortName":"Pizza","icon":{"prefix":"https:\/\/ss1.4sqi.net\/img\/categories_v2\/food\/pizza_","suffix":".png"},"primary":true}],"verified":true,"stats":{"checkinsCount":73,"usersCount":52,"tipCount":3},"url":"http:\/\/www.dominospizza.com","menu":{"type":"Menu","label":"Menu","anchor":"View Menu","url":"https:\/\/foursquare.com\/v\/dominos-pizza\/4c3a0f0c3849c928984bc2b1\/menu","mobileUrl":"https:\/\/foursquare.com\/v\/4c3a0f0c3849c928984bc2b1\/device_menu"},"specials":{"count":0,"items":[]},"hereNow":{"count":0,"summary":"0 people here","groups":[]},"storeId":"","referralId":"v-1402514471"},{"id":"4fadbec9e4b0fa27b829f9ff","name":"Pete's Pizza","contact":{},"location":{"isFuzzed":true,"lat":37.34777155677426,"lng":-121.94162261618759,"distance":8113,"cc":"US","city":"Santa Clara","state":"CA","country":"United States"},"categories":[{"id":"4bf58dd8d48988d103941735","name":"Home (private)","pluralName":"Homes (private)","shortName":"Home","icon":{"prefix":"https:\/\/ss1.4sqi.net\/img\/categories_v2\/building\/home_","suffix":".png"},"primary":true}],"verified":false,"stats":{"checkinsCount":8,"usersCount":3,"tipCount":0},"specials":{"count":0,"items":[]},"hereNow":{"count":0,"summary":"0 people here","groups":[]},"referralId":"v-1402514471"},{"id":"4c72f2e89e706dcbc93c4c62","name":"Giovanni's Pizza","contact":{},"location":{"address":"4701 Great America Pkwy","lat":37.39431377083543,"lng":-121.97293027918347,"distance":8614,"cc":"US","city":"Santa Clara","state":"CA","country":"United States"},"categories":[{"id":"4bf58dd8d48988d1ca941735","name":"Pizza Place","pluralName":"Pizza Places","shortName":"Pizza","icon":{"prefix":"https:\/\/ss1.4sqi.net\/img\/categories_v2\/food\/pizza_","suffix":".png"},"primary":true}],"verified":false,"stats":{"checkinsCount":44,"usersCount":38,"tipCount":1},"specials":{"count":0,"items":[]},"hereNow":{"count":0,"summary":"0 people here","groups":[]},"referralId":"v-1402514471"},{"id":"4c461c9809ba952152993f00","name":"Jersey's Pizza","contact":{},"location":{"address":"1781 Winchester Boulevard","lat":37.290817,"lng":-121.950067,"distance":8542,"postalCode":"95008","cc":"US","city":"Campbell","state":"CA","country":"United States"},"categories":[{"id":"4bf58dd8d48988d1ca941735","name":"Pizza Place","pluralName":"Pizza Places","shortName":"Pizza","icon":{"prefix":"https:\/\/ss1.4sqi.net\/img\/categories_v2\/food\/pizza_","suffix":".png"},"primary":true}],"verified":false,"stats":{"checkinsCount":0,"usersCount":0,"tipCount":0},"specials":{"count":0,"items":[]},"hereNow":{"count":0,"summary":"0 people here","groups":[]},"referralId":"v-1402514471"},{"id":"4ab57fc7f964a520fe7420e3","name":"Sal's Pizza","contact":{"phone":"4083760553","formattedPhone":"(408) 376-0553"},"location":{"address":"533 E Campbell Ave","crossStreet":"at Page St","lat":37.28723347559368,"lng":-121.94030284881592,"distance":9486,"postalCode":"95008","cc":"US","city":"Campbell","state":"CA","country":"United States"},"categories":[{"id":"4bf58dd8d48988d1ca941735","name":"Pizza Place","pluralName":"Pizza Places","shortName":"Pizza","icon":{"prefix":"https:\/\/ss1.4sqi.net\/img\/categories_v2\/food\/pizza_","suffix":".png"},"primary":true}],"verified":true,"stats":{"checkinsCount":391,"usersCount":175,"tipCount":6},"url":"http:\/\/sals-pizza.com","menu":{"type":"Menu","label":"Menu","anchor":"View Menu","url":"https:\/\/foursquare.com\/v\/sals-pizza\/4ab57fc7f964a520fe7420e3\/menu","mobileUrl":"https:\/\/foursquare.com\/v\/4ab57fc7f964a520fe7420e3\/device_menu"},"specials":{"count":0,"items":[]},"hereNow":{"count":0,"summary":"0 people here","groups":[]},"storeId":"","referralId":"v-1402514471"},{"id":"4e2204c622717a5245d15bea","name":"Frankie's Pizza","contact":{},"location":{"lat":37.395518,"lng":-121.97398,"distance":8667,"cc":"US","city":"Santa Clara","state":"CA","country":"United States"},"categories":[{"id":"4bf58dd8d48988d1ca941735","name":"Pizza Place","pluralName":"Pizza Places","shortName":"Pizza","icon":{"prefix":"https:\/\/ss1.4sqi.net\/img\/categories_v2\/food\/pizza_","suffix":".png"},"primary":true}],"verified":false,"stats":{"checkinsCount":9,"usersCount":9,"tipCount":0},"specials":{"count":0,"items":[]},"hereNow":{"count":0,"summary":"0 people here","groups":[]},"referralId":"v-1402514471"},{"id":"4bbc11662d9ea593de48a0ce","name":"Domino's Pizza","contact":{"phone":"6509644001","formattedPhone":"(650) 964-4001","twitter":"dominos"},"location":{"address":"1711 W El Camino Real","lat":37.39043701,"lng":-122.093938,"distance":8522,"postalCode":"94040","cc":"US","city":"Mountain View","state":"CA","country":"United States"},"categories":[{"id":"4bf58dd8d48988d1ca941735","name":"Pizza Place","pluralName":"Pizza Places","shortName":"Pizza","icon":{"prefix":"https:\/\/ss1.4sqi.net\/img\/categories_v2\/food\/pizza_","suffix":".png"},"primary":true}],"verified":true,"stats":{"checkinsCount":110,"usersCount":64,"tipCount":2},"url":"http:\/\/www.dominos.com","menu":{"type":"Menu","label":"Menu","anchor":"View Menu","url":"https:\/\/foursquare.com\/v\/dominos-pizza\/4bbc11662d9ea593de48a0ce\/menu","mobileUrl":"https:\/\/foursquare.com\/v\/4bbc11662d9ea593de48a0ce\/device_menu"},"specials":{"count":0,"items":[]},"hereNow":{"count":0,"summary":"0 people here","groups":[]},"storeId":"","referralId":"v-1402514471"},{"id":"50526c4fe4b0d45375849aa0","name":"Shakey's Pizza","contact":{},"location":{"address":"1705 Story Rd","crossStreet":"King Rd.","lat":37.300736,"lng":-121.931135,"distance":9533,"postalCode":"95122","cc":"US","city":"San Jose","state":"CA","country":"United States"},"categories":[{"id":"4bf58dd8d48988d1ca941735","name":"Pizza Place","pluralName":"Pizza Places","shortName":"Pizza","icon":{"prefix":"https:\/\/ss1.4sqi.net\/img\/categories_v2\/food\/pizza_","suffix":".png"},"primary":true}],"verified":false,"stats":{"checkinsCount":2,"usersCount":2,"tipCount":0},"specials":{"count":0,"items":[]},"hereNow":{"count":0,"summary":"0 people here","groups":[]},"referralId":"v-1402514471"},{"id":"52d57310498e9f24d8901ff8","name":"patxi's pizza","contact":{},"location":{"address":"3350 Zanker Rd","lat":37.39784468289512,"lng":-121.939275501045,"distance":10925,"postalCode":"95134","cc":"US","city":"San Jose","state":"CA","country":"United States"},"categories":[{"id":"4bf58dd8d48988d1ca941735","name":"Pizza Place","pluralName":"Pizza Places","shortName":"Pizza","icon":{"prefix":"https:\/\/ss1.4sqi.net\/img\/categories_v2\/food\/pizza_","suffix":".png"},"primary":true}],"verified":false,"stats":{"checkinsCount":1,"usersCount":1,"tipCount":0},"specials":{"count":0,"items":[]},"hereNow":{"count":0,"summary":"0 people here","groups":[]},"referralId":"v-1402514471"},{"id":"4bf352216a31d13ae595942e","name":"Pizza Hut","contact":{"phone":"4089785151","formattedPhone":"(408) 978-5151","twitter":"pizzahut"},"location":{"address":"4605 Cherry Ave","crossStreet":"at Branham Ln","lat":37.26049,"lng":-121.88498,"distance":15220,"postalCode":"95118-3708","cc":"US","city":"San Jose","state":"CA","country":"United States"},"categories":[{"id":"4bf58dd8d48988d1ca941735","name":"Pizza Place","pluralName":"Pizza Places","shortName":"Pizza","icon":{"prefix":"https:\/\/ss1.4sqi.net\/img\/categories_v2\/food\/pizza_","suffix":".png"},"primary":true}],"verified":true,"stats":{"checkinsCount":143,"usersCount":82,"tipCount":1},"url":"http:\/\/www.pizzahut.com\/locations\/california\/san-jose\/011739","menu":{"type":"Menu","label":"Menu","anchor":"View Menu","url":"https:\/\/foursquare.com\/v\/pizza-hut\/4bf352216a31d13ae595942e\/menu","mobileUrl":"https:\/\/foursquare.com\/v\/4bf352216a31d13ae595942e\/device_menu"},"specials":{"count":0,"items":[]},"hereNow":{"count":0,"summary":"0 people here","groups":[]},"storeId":"011739","referralId":"v-1402514471"},{"id":"4e4d2e84bd413c4cc66f3b5f","name":"Domino's Pizza","contact":{"phone":"4082663030","formattedPhone":"(408) 266-3030"},"location":{"address":"1876 Curtner Ave","lat":37.275843,"lng":-121.922666,"distance":11486,"postalCode":"95124","cc":"US","city":"San Jose","state":"CA","country":"United States"},"categories":[{"id":"4bf58dd8d48988d1ca941735","name":"Pizza Place","pluralName":"Pizza Places","shortName":"Pizza","icon":{"prefix":"https:\/\/ss1.4sqi.net\/img\/categories_v2\/food\/pizza_","suffix":".png"},"primary":true}],"verified":false,"stats":{"checkinsCount":0,"usersCount":0,"tipCount":0},"url":"http:\/\/dominos.com\/home\/index.jsp","menu":{"type":"Menu","label":"Menu","anchor":"View Menu","url":"https:\/\/foursquare.com\/v\/dominos-pizza\/4e4d2e84bd413c4cc66f3b5f\/menu","mobileUrl":"https:\/\/foursquare.com\/v\/4e4d2e84bd413c4cc66f3b5f\/device_menu"},"specials":{"count":0,"items":[]},"hereNow":{"count":0,"summary":"0 people here","groups":[]},"referralId":"v-1402514471"}]}}